{
  "globales": {
    "pct_cumplimiento_horario": 92.39,
    "pct_cumplimiento_lux": 7.58,
    "kwh_desperdiciados": 139.03,
    "costo_desperdicio_cop": 111172.15,
    "registros_sin_servicio": 38055,
    "registros_desperdicio_diurno": 3868,
    "lux_umbral_promedio_sistema": 33.38
  },
  "por_zona": [
    {
      "zona_id": 4,
      "nombre_zona": "San Cristóbal",
      "latitud": 4.56489,
      "longitud": -74.089571,
      "pct_cumplimiento_horario": 91.54,
      "pct_cumplimiento_lux": 3.66,
      "kwh_desperdiciados": 0.0,
      "costo_desperdicio_cop": 0.0,
      "registros_sin_servicio": 2019,
      "lux_umbral_politica": 40.0,
      "brecha_lux_promedio": -28.21
    },
    {
      "zona_id": 20,
      "nombre_zona": "Sumapaz",
      "latitud": 4.213,
      "longitud": -74.357,
      "pct_cumplimiento_horario": 91.59,
      "pct_cumplimiento_lux": 8.19,
      "kwh_desperdiciados": 0.0,
      "costo_desperdicio_cop": 0.0,
      "registros_sin_servicio": 20627,
      "lux_umbral_politica": 30.0,
      "brecha_lux_promedio": -18.19
    },
    {
      "zona_id": 12,
      "nombre_zona": "Barrios Unidos",
      "latitud": 4.665,
      "longitud": -74.071,
      "pct_cumplimiento_horario": 91.6,
      "pct_cumplimiento_lux": 3.36,
      "kwh_desperdiciados": 0.0,
      "costo_desperdicio_cop": 0.0,
      "registros_sin_servicio": 82,
      "lux_umbral_politica": 40.0,
      "brecha_lux_promedio": -28.62
    },
    {
      "zona_id": 15,
      "nombre_zona": "Antonio Nariño",
      "latitud": 4.594,
      "longitud": -74.108,
      "pct_cumplimiento_horario": 91.65,
      "pct_cumplimiento_lux": 3.47,
      "kwh_desperdiciados": 0.0,
      "costo_desperdicio_cop": 0.0,
      "registros_sin_servicio": 84,
      "lux_umbral_politica": 40.0,
      "brecha_lux_promedio": -28.06
    },
    {
      "zona_id": 6,
      "nombre_zona": "Tunjuelito",
      "latitud": 4.572,
      "longitud": -74.131,
      "pct_cumplimiento_horario": 91.65,
      "pct_cumplimiento_lux": 3.36,
      "kwh_desperdiciados": 0.0,
      "costo_desperdicio_cop": 0.0,
      "registros_sin_servicio": 168,
      "lux_umbral_politica": 40.0,
      "brecha_lux_promedio": -28.36
    },
    {
      "zona_id": 8,
      "nombre_zona": "Kennedy",
      "latitud": 4.627,
      "longitud": -74.164,
      "pct_cumplimiento_horario": 91.67,
      "pct_cumplimiento_lux": 3.25,
      "kwh_desperdiciados": 0.0,
      "costo_desperdicio_cop": 0.0,
      "registros_sin_servicio": 1403,
      "lux_umbral_politica": 40.0,
      "brecha_lux_promedio": -28.29
    },
    {
      "zona_id": 5,
      "nombre_zona": "Usme",
      "latitud": 4.478,
      "longitud": -74.134,
      "pct_cumplimiento_horario": 91.68,
      "pct_cumplimiento_lux": 8.04,
      "kwh_desperdiciados": 0.0,
      "costo_desperdicio_cop": 0.0,
      "registros_sin_servicio": 4150,
      "lux_umbral_politica": 30.0,
      "brecha_lux_promedio": -18.22
    },
    {
      "zona_id": 10,
      "nombre_zona": "Engativá",
      "latitud": 4.702,
      "longitud": -74.112,
      "pct_cumplimiento_horario": 91.72,
      "pct_cumplimiento_lux": 3.56,
      "kwh_desperdiciados": 0.0,
      "costo_desperdicio_cop": 0.0,
      "registros_sin_servicio": 1077,
      "lux_umbral_politica": 40.0,
      "brecha_lux_promedio": -28.17
    },
    {
      "zona_id": 16,
      "nombre_zona": "Puente Aranda",
      "latitud": 4.621,
      "longitud": -74.109,
      "pct_cumplimiento_horario": 91.74,
      "pct_cumplimiento_lux": 3.82,
      "kwh_desperdiciados": 0.0,
      "costo_desperdicio_cop": 0.0,
      "registros_sin_servicio": 412,
      "lux_umbral_politica": 40.0,
      "brecha_lux_promedio": -28.14
    },
    {
      "zona_id": 19,
      "nombre_zona": "Ciudad Bolívar",
      "latitud": 4.509,
      "longitud": -74.16,
      "pct_cumplimiento_horario": 91.82,
      "pct_cumplimiento_lux": 8.31,
      "kwh_desperdiciados": 0.0,
      "costo_desperdicio_cop": 0.0,
      "registros_sin_servicio": 2968,
      "lux_umbral_politica": 30.0,
      "brecha_lux_promedio": -18.22
    },
    {
      "zona_id": 9,
      "nombre_zona": "Fontibón",
      "latitud": 4.673,
      "longitud": -74.146,
      "pct_cumplimiento_horario": 91.92,
      "pct_cumplimiento_lux": 3.56,
      "kwh_desperdiciados": 0.0,
      "costo_desperdicio_cop": 0.0,
      "registros_sin_servicio": 891,
      "lux_umbral_politica": 40.0,
      "brecha_lux_promedio": -27.98
    },
    {
      "zona_id": 7,
      "nombre_zona": "Bosa",
      "latitud": 4.628,
      "longitud": -74.197,
      "pct_cumplimiento_horario": 92.29,
      "pct_cumplimiento_lux": 3.23,
      "kwh_desperdiciados": 0.0,
      "costo_desperdicio_cop": 0.0,
      "registros_sin_servicio": 228,
      "lux_umbral_politica": 40.0,
      "brecha_lux_promedio": -28.14
    },
    {
      "zona_id": 18,
      "nombre_zona": "Rafael Uribe",
      "latitud": 4.56,
      "longitud": -74.113,
      "pct_cumplimiento_horario": 92.45,
      "pct_cumplimiento_lux": 3.08,
      "kwh_desperdiciados": 0.0,
      "costo_desperdicio_cop": 0.0,
      "registros_sin_servicio": 154,
      "lux_umbral_politica": 40.0,
      "brecha_lux_promedio": -28.33
    },
    {
      "zona_id": 14,
      "nombre_zona": "Los Mártires",
      "latitud": 4.609,
      "longitud": -74.086,
      "pct_cumplimiento_horario": 95.38,
      "pct_cumplimiento_lux": 4.09,
      "kwh_desperdiciados": 1.07,
      "costo_desperdicio_cop": 853.79,
      "registros_sin_servicio": 45,
      "lux_umbral_politica": 40.0,
      "brecha_lux_promedio": -27.82
    },
    {
      "zona_id": 3,
      "nombre_zona": "Santa Fe",
      "latitud": 4.596524,
      "longitud": -74.073839,
      "pct_cumplimiento_horario": 95.6,
      "pct_cumplimiento_lux": 3.5,
      "kwh_desperdiciados": 33.83,
      "costo_desperdicio_cop": 27085.82,
      "registros_sin_servicio": 931,
      "lux_umbral_politica": 40.0,
      "brecha_lux_promedio": -28.22
    },
    {
      "zona_id": 11,
      "nombre_zona": "Suba",
      "latitud": 4.742,
      "longitud": -74.083,
      "pct_cumplimiento_horario": 95.73,
      "pct_cumplimiento_lux": 10.85,
      "kwh_desperdiciados": 39.75,
      "costo_desperdicio_cop": 31746.33,
      "registros_sin_servicio": 1188,
      "lux_umbral_politica": 40.0,
      "brecha_lux_promedio": -22.19
    },
    {
      "zona_id": 2,
      "nombre_zona": "Chapinero",
      "latitud": 4.644723,
      "longitud": -74.059753,
      "pct_cumplimiento_horario": 95.77,
      "pct_cumplimiento_lux": 10.88,
      "kwh_desperdiciados": 24.82,
      "costo_desperdicio_cop": 19829.47,
      "registros_sin_servicio": 582,
      "lux_umbral_politica": 40.0,
      "brecha_lux_promedio": -22.23
    },
    {
      "zona_id": 17,
      "nombre_zona": "La Candelaria",
      "latitud": 4.597,
      "longitud": -74.074,
      "pct_cumplimiento_horario": 95.9,
      "pct_cumplimiento_lux": 3.1,
      "kwh_desperdiciados": 0.81,
      "costo_desperdicio_cop": 647.39,
      "registros_sin_servicio": 40,
      "lux_umbral_politica": 40.0,
      "brecha_lux_promedio": -28.42
    },
    {
      "zona_id": 1,
      "nombre_zona": "Usaquén",
      "latitud": 4.701443,
      "longitud": -74.031189,
      "pct_cumplimiento_horario": 95.95,
      "pct_cumplimiento_lux": 10.46,
      "kwh_desperdiciados": 35.28,
      "costo_desperdicio_cop": 28218.81,
      "registros_sin_servicio": 936,
      "lux_umbral_politica": 40.0,
      "brecha_lux_promedio": -22.46
    },
    {
      "zona_id": 13,
      "nombre_zona": "Teusaquillo",
      "latitud": 4.651,
      "longitud": -74.085,
      "pct_cumplimiento_horario": 96.44,
      "pct_cumplimiento_lux": 11.71,
      "kwh_desperdiciados": 3.47,
      "costo_desperdicio_cop": 2790.54,
      "registros_sin_servicio": 70,
      "lux_umbral_politica": 40.0,
      "brecha_lux_promedio": -22.16
    }
  ]
}